{
    "data": [
        {
            "id": "2",
            "type": "any-apm",
            "image": null,
            "title": "Any-APM",
            "name": "Any-APM",
            "postalCode": null,
            "country": null,
            "addressLine1": "Wildcard APM used as an origin location",
            "addressLine2": null,
            "region": null
        },
        {
            "id": "3",
            "type": "apm",
            "image": "https://storage.googleapis.com/boxnow-staging-images/images/manager/27_09_2022/5c785faf-8952-4f63-9d8b-75a45d26b04a",
            "lat": "37.9580501",
            "lng": "23.6372726",
            "title": "XOPMOBHTOY 144, 18545",
            "name": "Πολιτιστικός Σύλλογος Αγ. Μαρίνας - Παιανία",
            "postalCode": "18545",
            "country": "GR",
            "note": "Μπροστά από το κατάστημα και τα κεντρικά γραφεία της Hellas Phone, αλλά και κοντά σε στάση λεωφορείου σε μια πολυσύχναστη και κατοικημένη περιοχή.",
            "addressLine1": "Χορμοβήτου 144",
            "addressLine2": "Πειραιάς - Αθήνα",
            "expectedDeliveryTime": "2023-06-12T22:00:00.000Z",
            "region": "el-GR"
        },
        {
            "id": "9",
            "type": "apm",
            "image": "",
            "lat": "37.98667955374032",
            "lng": "23.697897257052723",
            "title": "IEPA OΔOΣ 116, 10447",
            "name": "Aegean ΜΕΤΡΟ Ελαιώνας",
            "postalCode": "10447",
            "country": "GR",
            "note": "Βρίσκεται σε μια πλευρά του βενζινάδικου \"Aegean\", ορατό από την απέναντι πλευρά του δρόμου.",
            "addressLine1": "Iερά Οδός 116",
            "addressLine2": "Αθήνα",
            "expectedDeliveryTime": "2023-06-12T22:00:00.000Z",
            "region": "el-GR"
        },
        {
            "id": "5",
            "type": "apm",
            "image": "",
            "lat": "38.042913",
            "lng": "23.8348462",
            "title": "Λ. ΠENTEΛHΣ 110, 15238",
            "name": "ΟΠΑΠ Play Βριλήσσια",
            "postalCode": "15238",
            "country": "GR",
            "note": "Μπροστά από το κατάστημα ΟΠΑΠ σε πολύ ωραία γειτονιά.",
            "addressLine1": "Λεωφόρος Πεντέλης 110",
            "addressLine2": "Βριλήσσια - Αθήνα",
            "expectedDeliveryTime": "2023-06-12T22:00:00.000Z",
            "region": "el-GR"
        },
        {
            "id": "7",
            "type": "apm",
            "image": "",
            "lat": "37.939909",
            "lng": "23.698856",
            "title": "ΣYNT/XOY ZHΣIMOΠOYΛOY 20, 17564",
            "name": "ΟΠΑΠ Play Αμφιθέας",
            "postalCode": "17564",
            "country": "GR",
            "note": "Μπροστά από τον ΟΠΑΠ, σε κατοικημένη περιοχή κοντά σε LIDL και μερικά εστιατόρια.",
            "addressLine1": "Συνταγματάρχου Ζησιμοπούλου 20",
            "addressLine2": "Παλαιό Φάληρο - Αθήνα",
            "expectedDeliveryTime": "2023-06-12T22:00:00.000Z",
            "region": "el-GR"
        },
        {
            "id": "6",
            "type": "apm",
            "image": "",
            "lat": "37.9902782",
            "lng": "23.7037448",
            "title": "Λ. AΘHNΩN 108, 10442",
            "name": "ΟΠΑΠ Ακαδημία Πλάτωνος",
            "postalCode": "10442",
            "country": "GR",
            "note": "Μπροστά από τον ΟΠΑΠ, δίπλα από τα κεντρικά γραφεία του ΟΠΑΠ και της Wind, καθώς είναι πολύ εύκολο να το εντοπίσετε. Είναι δυνατή η στάθμευση μικρής διάρκειας στη γειτονιά.",
            "addressLine1": "Λεωφόρος Αθηνών 108",
            "addressLine2": "Αθήνα",
            "expectedDeliveryTime": "2023-06-12T22:00:00.000Z",
            "region": "el-GR"
        },
        {
            "id": "4",
            "type": "apm",
            "image": "",
            "lat": "38.0309366",
            "lng": "23.8181827",
            "title": "Λ. ΠENTEΛHΣ 125, 15234",
            "name": "ΟΠΑΠ Play Χαλάνδρι",
            "postalCode": "15234",
            "country": "GR",
            "note": "Μπροστά από το κατάστημα ΟΠΑΠ, σε κατοικημένη περιοχή με πολύ υψηλή ορατότητα σε έναν από τους κεντρικούς δρόμους.",
            "addressLine1": "Λεωφόρος Πεντέλης 125",
            "addressLine2": "Χαλάνδρι - Αθήνα",
            "expectedDeliveryTime": "2023-06-12T22:00:00.000Z",
            "region": "el-GR"
        },
        {
            "id": "10",
            "type": "apm",
            "image": "",
            "lat": "37.954828372787304",
            "lng": "23.675266683524555",
            "title": "ΠEIPAIΩΣ 8, 18346",
            "name": "Bazaar Πειραιώς",
            "postalCode": "18346",
            "country": "GR",
            "note": "Μπροστά από το κατάστημα Bazaar, με βραχυπρόθεσμα διαθέσιμο χώρο στάθμευσης και υψηλή ορατότητα και από τις δύο πλευρές του δρόμου. ",
            "addressLine1": "ΠEIPAIΩΣ 8",
            "addressLine2": "Μοσχάτο - Αθήνα",
            "expectedDeliveryTime": "2023-06-12T22:00:00.000Z",
            "region": "el-GR"
        },
        {
            "id": "4227",
            "type": "warehouse",
            "image": null,
            "lat": "40.6548280119898",
            "lng": "22.8858871546862",
            "title": null,
            "name": "Answear - Warehouse 1",
            "postalCode": "54628",
            "country": "GR",
            "addressLine1": "Dimosthenous 31",
            "addressLine2": "Thessaloniki",
            "region": "el-GR"
        }
    ]
}
